{"type":"FeatureCollection","features":[{"type":"Feature","properties":{"nom_espai":"Mar Bella, Parc - Ronda Litoral, c.","tipus":"CÚMUL DE TRONCS","localitzacio":"Mar Bella, Parc - Ronda Litoral, c.","districte":"SANT MARTÍ","barri":"DIAGONAL MAR I EL FRONT MARÍTIM DEL POBLENOU","codi":"0091-01-V028-SV026-0064747MB"},"geometry":{"type":"Point","coordinates":[2.212795195,41.39986436]}},{"type":"Feature","properties":{"nom_espai":"Glòries Catalanes, Pl.","tipus":"CÚMUL DE TRONCS","localitzacio":"Glòries Catalanes, Pl.","districte":"SANT MARTÍ","barri":"EL PARC I LA LLACUNA DEL POBLENOU","codi":"0097-01-V064-SV002-0067816MB"},"geometry":{"type":"Point","coordinates":[2.186519355,41.40386281]}},{"type":"Feature","properties":{"nom_espai":"Glòries Catalanes, Pl.","tipus":"CÚMUL DE TRONCS","localitzacio":"Glòries Catalanes, Pl.","districte":"SANT MARTÍ","barri":"EL CLOT","codi":"0097-01-V065-SV005-0067814MB"},"geometry":{"type":"Point","coordinates":[2.185960114,41.40509354]}},{"type":"Feature","properties":{"nom_espai":"Glòries Catalanes, Pl.","tipus":"CÚMUL DE TRONCS","localitzacio":"Glòries Catalanes, Pl.","districte":"SANT MARTÍ","barri":"EL PARC I LA LLACUNA DEL POBLENOU","codi":"0097-01-V066-SV003-0067815MB"},"geometry":{"type":"Point","coordinates":[2.185623497,41.40329749]}},{"type":"Feature","properties":{"nom_espai":"Diagonal Mar, Parc","tipus":"CÚMUL DE TRONCS","localitzacio":"Diagonal Mar, Parc","districte":"SANT MARTÍ","barri":"DIAGONAL MAR I EL FRONT MARÍTIM DEL POBLENOU","codi":"0238-01-V163-SV002-0067611MB"},"geometry":{"type":"Point","coordinates":[2.214392871,41.40800681]}},{"type":"Feature","properties":{"nom_espai":"Diagonal Mar, Parc","tipus":"CÚMUL DE TRONCS","localitzacio":"Diagonal Mar, Parc","districte":"SANT MARTÍ","barri":"DIAGONAL MAR I EL FRONT MARÍTIM DEL POBLENOU","codi":"0238-01-V175-SV012-0067380MB"},"geometry":{"type":"Point","coordinates":[2.212433588,41.40685882]}},{"type":"Feature","properties":{"nom_espai":"Diagonal Mar, Parc","tipus":"BIO-TRONCS","localitzacio":"Diagonal Mar, Parc","districte":"SANT MARTÍ","barri":"DIAGONAL MAR I EL FRONT MARÍTIM DEL POBLENOU","codi":"0238-01-V181-SV003-0067600MB"},"geometry":{"type":"Point","coordinates":[2.216244265,41.407353]}},{"type":"Feature","properties":{"nom_espai":"Diagonal Mar, Parc","tipus":"CÚMUL DE TRONCS","localitzacio":"Diagonal Mar, Parc","districte":"SANT MARTÍ","barri":"DIAGONAL MAR I EL FRONT MARÍTIM DEL POBLENOU","codi":"0238-02-V135-SV005-0067609MB"},"geometry":{"type":"Point","coordinates":[2.214386836,41.40761151]}},{"type":"Feature","properties":{"nom_espai":"Hort Masia Can Cadena (H001)","tipus":"BIO-TRONCS","localitzacio":"Hort Masia Can Cadena (H001)","districte":"SANT MARTÍ","barri":"SANT MARTÍ DE PROVENÇALS","codi":"0319-01-V005-SV002-0056332MB"},"geometry":{"type":"Point","coordinates":[2.197121588,41.42034873]}},{"type":"Feature","properties":{"nom_espai":"Zoològic, Parc","tipus":"BIO-TRONCS","localitzacio":"Zoològic, Parc","districte":"CIUTAT VELLA","barri":"SANT PERE, SANTA CATERINA I LA RIBERA","codi":"1004-01-T209-PV003-0056330MB"},"geometry":{"type":"Point","coordinates":[2.189534716,41.38620413]}},{"type":"Feature","properties":{"nom_espai":"Zoològic, Parc","tipus":"BIO-TRONCS","localitzacio":"Zoològic, Parc","districte":"CIUTAT VELLA","barri":"SANT PERE, SANTA CATERINA I LA RIBERA","codi":"1004-01-V601-SV002-0066999MB"},"geometry":{"type":"Point","coordinates":[2.189414391,41.38623724]}},{"type":"Feature","properties":{"nom_espai":"Valent Petit, jardins","tipus":"CÚMUL DE TRONCS","localitzacio":"Valent Petit, jardins","districte":"SANTS - MONTJUÏC","barri":"LA BORDETA","codi":"3105-02-V021-SV003-0064750MB"},"geometry":{"type":"Point","coordinates":[2.133982276,41.36533371]}},{"type":"Feature","properties":{"nom_espai":"Polvorí, c. (Francesc Ferrer i Guàrdia, c. - Segura, c.)","tipus":"BIO-TRONCS","localitzacio":"Polvorí, c. (Francesc Ferrer i Guàrdia, c. - Segura, c.)","districte":"SANTS - MONTJUÏC","barri":"EL POBLE SEC","codi":"3152-01-V023-SV005-0056335MB"},"geometry":{"type":"Point","coordinates":[2.144378605,41.36783604]}},{"type":"Feature","properties":{"nom_espai":"Hort Masia Can Mestres, c. (H301)","tipus":"BIO-TRONCS","localitzacio":"Hort Masia Can Mestres, c. (H301)","districte":"SANTS - MONTJUÏC","barri":"LA MARINA DEL PORT","codi":"3286-02-V003-SV002-0056331MB"},"geometry":{"type":"Point","coordinates":[2.144489704,41.35991511]}},{"type":"Feature","properties":{"nom_espai":"Estructura Fauna - Estacio Autobusos","tipus":"CÚMUL DE TRONCS","localitzacio":"Estructura Fauna - Estacio Autobusos","districte":"SANTS - MONTJUÏC","barri":"SANTS","codi":"3365-01-T001-PV001-0067213MB"},"geometry":{"type":"Point","coordinates":[2.139913895,41.37843709]}},{"type":"Feature","properties":{"nom_espai":"Estructures Fauna - Av. Vallcarca","tipus":"BIO-TRONCS","localitzacio":"Estructures Fauna - Av. Vallcarca","districte":"GRÀCIA","barri":"VALLCARCA I ELS PENITENTS","codi":"6186-01-T001-PV001-0067211MB"},"geometry":{"type":"Point","coordinates":[2.143179862,41.41399014]}},{"type":"Feature","properties":{"nom_espai":"Guinardó, Parc (forestal)","tipus":"CÚMUL DE TRONCS","localitzacio":"Guinardó, Parc (forestal)","districte":"HORTA - GUINARDÓ","barri":"LA FONT DEN FARGUES","codi":"7119-01-V012-SV021-0061705MB"},"geometry":{"type":"Point","coordinates":[2.167385185,41.4223163]}},{"type":"Feature","properties":{"nom_espai":"Guinardó, Parc (forestal)","tipus":"BIO-TRONCS","localitzacio":"Guinardó, Parc (forestal)","districte":"HORTA - GUINARDÓ","barri":"EL GUINARDÓ","codi":"7119-01-V016-SV031-0061707MB"},"geometry":{"type":"Point","coordinates":[2.167409436,41.42017885]}},{"type":"Feature","properties":{"nom_espai":"Guinardó, Parc (forestal)","tipus":"BIO-TRONCS","localitzacio":"Guinardó, Parc (forestal)","districte":"HORTA - GUINARDÓ","barri":"EL GUINARDÓ","codi":"7119-01-V016-SV031-0061708MB"},"geometry":{"type":"Point","coordinates":[2.16749432,41.42023469]}},{"type":"Feature","properties":{"nom_espai":"Guinardó, Parc (forestal)","tipus":"BIO-TRONCS","localitzacio":"Guinardó, Parc (forestal)","districte":"HORTA - GUINARDÓ","barri":"EL GUINARDÓ","codi":"7119-01-V016-SV031-0067840MB"},"geometry":{"type":"Point","coordinates":[2.167444825,41.42157008]}},{"type":"Feature","properties":{"nom_espai":"Guinardó, Parc (forestal)","tipus":"BIO-TRONCS","localitzacio":"Guinardó, Parc (forestal)","districte":"HORTA - GUINARDÓ","barri":"EL GUINARDÓ","codi":"7119-01-V017-SV036-0061706MB"},"geometry":{"type":"Point","coordinates":[2.168279346,41.42267712]}},{"type":"Feature","properties":{"nom_espai":"Can Marcet, Jardins (Estatut de Catalunya, Av. - Can Marcet, Av.)","tipus":"BIO-TRONCS","localitzacio":"Can Marcet, Jardins (Estatut de Catalunya, Av. - Can Marcet, Av.)","districte":"HORTA - GUINARDÓ","barri":"LA VALL DHEBRON","codi":"7239-01-V122-SV003-0064745MB"},"geometry":{"type":"Point","coordinates":[2.151677296,41.43482522]}},{"type":"Feature","properties":{"nom_espai":"Can Fargas, Jardins","tipus":"BIO-TRONCS","localitzacio":"Can Fargas, Jardins","districte":"HORTA - GUINARDÓ","barri":"LA FONT DEN FARGUES","codi":"7264-01-V030-SV004-0056329MB"},"geometry":{"type":"Point","coordinates":[2.164510399,41.42769561]}},{"type":"Feature","properties":{"nom_espai":"Dr. Pla i Armengol, Jardins","tipus":"BIO-TRONCS","localitzacio":"Dr. Pla i Armengol, Jardins","districte":"HORTA - GUINARDÓ","barri":"EL GUINARDÓ","codi":"7265-01-V065-SV021-0067377MB"},"geometry":{"type":"Point","coordinates":[2.170660471,41.4153715]}},{"type":"Feature","properties":{"nom_espai":"Turó de la Peira, Parc.","tipus":"BIO-TRONCS","localitzacio":"Turó de la Peira, Parc.","districte":"NOU BARRIS","barri":"EL TURÓ DE LA PEIRA","codi":"8000-01-V059-SV013-0056333MB"},"geometry":{"type":"Point","coordinates":[2.165517194,41.43298767]}},{"type":"Feature","properties":{"nom_espai":"Guineueta, Parc de la","tipus":"BIO-TRONCS","localitzacio":"Guineueta, Parc de la","districte":"NOU BARRIS","barri":"LA GUINEUETA","codi":"8045-01-V158-SV005-0056338MB"},"geometry":{"type":"Point","coordinates":[2.172999657,41.44012134]}},{"type":"Feature","properties":{"nom_espai":"Primer de Maig, pl.","tipus":"BIO-TRONCS","localitzacio":"Primer de Maig, pl.","districte":"NOU BARRIS","barri":"VALLBONA","codi":"8197-01-V002-SV006-0056336MB"},"geometry":{"type":"Point","coordinates":[2.186073731,41.46462685]}},{"type":"Feature","properties":{"nom_espai":"Pegaso, Parc","tipus":"BIO-TRONCS","localitzacio":"Pegaso, Parc","districte":"SANT ANDREU","barri":"LA SAGRERA","codi":"9071-01-V073-SV008-0056334MB"},"geometry":{"type":"Point","coordinates":[2.188566833,41.42702134]}},{"type":"Feature","properties":{"nom_espai":"Trinitat, Parc","tipus":"BIO-TRONCS","localitzacio":"Trinitat, Parc","districte":"SANT ANDREU","barri":"LA TRINITAT VELLA","codi":"9120-01-V084-SV003-0056328MB"},"geometry":{"type":"Point","coordinates":[2.196197866,41.44960048]}},{"type":"Feature","properties":{"nom_espai":"Trinitat, Parc","tipus":"BIO-TRONCS","localitzacio":"Trinitat, Parc","districte":"SANT ANDREU","barri":"LA TRINITAT VELLA","codi":"9120-01-V084-SV003-0067841MB"},"geometry":{"type":"Point","coordinates":[2.196160555,41.44963806]}},{"type":"Feature","properties":{"nom_espai":"Trinitat, Parc","tipus":"BIO-TRONCS","localitzacio":"Trinitat, Parc","districte":"SANT ANDREU","barri":"LA TRINITAT VELLA","codi":"9120-01-V084-SV003-0067842MB"},"geometry":{"type":"Point","coordinates":[2.196270525,41.44957071]}},{"type":"Feature","properties":{"nom_espai":"Trinitat, Parc","tipus":"BIO-TRONCS","localitzacio":"Trinitat, Parc","districte":"SANT ANDREU","barri":"LA TRINITAT VELLA","codi":"9120-01-V084-SV003-0067843MB"},"geometry":{"type":"Point","coordinates":[2.196161896,41.44969033]}},{"type":"Feature","properties":{"nom_espai":"Trinitat, Parc","tipus":"BIO-TRONCS","localitzacio":"Trinitat, Parc","districte":"SANT ANDREU","barri":"LA TRINITAT VELLA","codi":"9120-01-V084-SV003-0067844MB"},"geometry":{"type":"Point","coordinates":[2.196253091,41.449627]}},{"type":"Feature","properties":{"nom_espai":"Hort Trinitat Vella (H901)","tipus":"BIO-TRONCS","localitzacio":"Hort Trinitat Vella (H901)","districte":"SANT ANDREU","barri":"LA TRINITAT VELLA","codi":"9255-01-V007-SV001-0056337MB"},"geometry":{"type":"Point","coordinates":[2.195054332,41.45059282]}},{"type":"Feature","properties":{"nom_espai":"Hort Trinitat Vella (H901)","tipus":"BIO-TRONCS","localitzacio":"Hort Trinitat Vella (H901)","districte":"SANT ANDREU","barri":"LA TRINITAT VELLA","codi":"9255-01-V007-SV001-0066672MB"},"geometry":{"type":"Point","coordinates":[2.195033408,41.45058871]}}]}